[{"name":"PeekYou","geopoint":{"type":"Point","coordinates":[-73.985506,40.757929]},"address":"17 Dunster Street","city":"Cambridge","geocoord":"42.372912,-71.118999","type":"Company"},{"name":"headr","geopoint":{"type":"Point","coordinates":[13.4109071,52.5013449]},"address":"770 Broadway","city":"New York","geocoord":"40.731118,-73.991933","type":"Company"},{"name":"Clowdy","geopoint":{"type":"Point","coordinates":[-2.2439492,53.4837067]},"address":"2445 M St NW","city":"Washington","geocoord":"38.9055777,-77.0526052","type":"Company"},{"name":"LoveAccess","geopoint":{"type":"Point","coordinates":[-70.884948,42.166398]},"address":"200 South Wacker Drive","city":"Chicago","geocoord":"41.878984,-87.637","type":"Company"},{"name":"Plug in SEO","geopoint":{"type":"Point","coordinates":[-0.1262362,51.5001524]},"address":"700 - 1112 West Pender St.","city":"Vancouver","geocoord":"49.2876045,-123.1208184","type":"Company"}]